[
    {
        "name": "Unknown Police Station",
        "coordinates": {
            "latitude": 27.6925224,
            "longitude": 83.4680801
        }
    },
    {
        "name": "UTTARA THANA",
        "coordinates": {
            "latitude": 23.8669784,
            "longitude": 90.4005546
        }
    },
    {
        "name": "Unknown Police Station",
        "coordinates": {
            "latitude": 25.2719364,
            "longitude": 83.1453826
        }
    },
    {
        "name": "Unknown Police Station",
        "coordinates": {
            "latitude": 25.3566904,
            "longitude": 82.9550377
        }
    },
    {
        "name": "Ghara",
        "coordinates": {
            "latitude": 28.4573917,
            "longitude": 83.6564815
        }
    },
    {
        "name": "Mill Barak Police Line",
        "coordinates": {
            "latitude": 23.6999338,
            "longitude": 90.4191506
        }
    },
    {
        "name": "Hazratganj Police Station",
        "coordinates": {
            "latitude": 26.8471889,
            "longitude": 80.9460958
        }
    },
    {
        "name": "Ruma Garison",
        "coordinates": {
            "latitude": 22.0599881,
            "longitude": 92.3796806
        }
    },
    {
        "name": "\u0995\u09cb\u09a4\u09cb\u09af\u09bc\u09be\u09b2\u09bf \u09a5\u09be\u09a8\u09be",
        "coordinates": {
            "latitude": 23.7072369,
            "longitude": 90.409046
        }
    },
    {
        "name": "Tourist Police Post",
        "coordinates": {
            "latitude": 28.2117055,
            "longitude": 83.95727
        }
    },
    {
        "name": "Jadavpur Police Station",
        "coordinates": {
            "latitude": 22.5027682,
            "longitude": 88.3677291
        }
    },
    {
        "name": "Gokhale Road Police Quarters",
        "coordinates": {
            "latitude": 22.5393378,
            "longitude": 88.344409
        }
    },
    {
        "name": "Unknown Police Station",
        "coordinates": {
            "latitude": 24.7527747,
            "longitude": 97.5630569
        }
    },
    {
        "name": "Khulna Kotowali Thana",
        "coordinates": {
            "latitude": 22.8171427,
            "longitude": 89.564834
        }
    },
    {
        "name": "Unknown Police Station",
        "coordinates": {
            "latitude": 27.6847278,
            "longitude": 85.3010504
        }
    },
    {
        "name": "Balkhu",
        "coordinates": {
            "latitude": 27.6847585,
            "longitude": 85.2980741
        }
    },
    {
        "name": "Kalimati",
        "coordinates": {
            "latitude": 27.6963576,
            "longitude": 85.2993664
        }
    },
    {
        "name": "Panchlaish Model Thana",
        "coordinates": {
            "latitude": 22.362801,
            "longitude": 91.8341989
        }
    },
    {
        "name": "science lab police box",
        "coordinates": {
            "latitude": 23.7388054,
            "longitude": 90.3832282
        }
    },
    {
        "name": "Ramna PS",
        "coordinates": {
            "latitude": 23.7453751,
            "longitude": 90.4044018
        }
    },
    {
        "name": "RajarBagh Police Line",
        "coordinates": {
            "latitude": 23.7406272,
            "longitude": 90.4173669
        }
    },
    {
        "name": "National Security Intelligence Bangladesh",
        "coordinates": {
            "latitude": 23.7349427,
            "longitude": 90.4055598
        }
    },
    {
        "name": "Office Of The Metropolitan Police Comissioner",
        "coordinates": {
            "latitude": 23.7434554,
            "longitude": 90.4049283
        }
    },
    {
        "name": "Unknown Police Station",
        "coordinates": {
            "latitude": 17.7348024,
            "longitude": 83.2812926
        }
    },
    {
        "name": "Unknown Police Station",
        "coordinates": {
            "latitude": 27.354092,
            "longitude": 95.315988
        }
    },
    {
        "name": "\u0930\u0947\u0928\u094d\u091c\u0930\u0939\u0930\u0942",
        "coordinates": {
            "latitude": 27.7073176,
            "longitude": 85.2925744
        }
    },
    {
        "name": "Unknown Police Station",
        "coordinates": {
            "latitude": 27.1843431,
            "longitude": 94.9151069
        }
    },
    {
        "name": "Tinsukia Police Station",
        "coordinates": {
            "latitude": 27.4879061,
            "longitude": 95.3569119
        }
    },
    {
        "name": "Sea Beach Police Station",
        "coordinates": {
            "latitude": 19.7970994,
            "longitude": 85.8258784
        }
    },
    {
        "name": "Puri Town Police Station",
        "coordinates": {
            "latitude": 19.8087658,
            "longitude": 85.8228135
        }
    },
    {
        "name": "Bistupur Police Station.",
        "coordinates": {
            "latitude": 22.7979889,
            "longitude": 86.1844592
        }
    },
    {
        "name": "Kolkata Police Headquarters",
        "coordinates": {
            "latitude": 22.5725398,
            "longitude": 88.3524126
        }
    },
    {
        "name": "Tinchuli chowk",
        "coordinates": {
            "latitude": 27.7270177,
            "longitude": 85.3685693
        }
    },
    {
        "name": "Kotwali Police Station",
        "coordinates": {
            "latitude": 22.3337319,
            "longitude": 91.8370557
        }
    },
    {
        "name": "Imadol Police Station",
        "coordinates": {
            "latitude": 27.6592311,
            "longitude": 85.3439525
        }
    },
    {
        "name": "Police Outpost",
        "coordinates": {
            "latitude": 22.3193065,
            "longitude": 87.3082055
        }
    },
    {
        "name": "3 Town Police Station",
        "coordinates": {
            "latitude": 17.7285275,
            "longitude": 83.3260976
        }
    },
    {
        "name": "Satdobato Police Station",
        "coordinates": {
            "latitude": 27.6584715,
            "longitude": 85.3248474
        }
    },
    {
        "name": "Unknown Police Station",
        "coordinates": {
            "latitude": 25.2999805,
            "longitude": 83.0015478
        }
    },
    {
        "name": "Sonarpur Police Station",
        "coordinates": {
            "latitude": 22.4424481,
            "longitude": 88.4305142
        }
    },
    {
        "name": "Latasil Police Station",
        "coordinates": {
            "latitude": 26.1899295,
            "longitude": 91.7519454
        }
    },
    {
        "name": "Kamal Pokhari Police Station",
        "coordinates": {
            "latitude": 27.7102108,
            "longitude": 85.3255216
        }
    },
    {
        "name": "Someswor Police",
        "coordinates": {
            "latitude": 27.434914,
            "longitude": 84.4170709
        }
    },
    {
        "name": "Basantapur Police",
        "coordinates": {
            "latitude": 27.4571557,
            "longitude": 84.3232579
        }
    },
    {
        "name": "Police Station",
        "coordinates": {
            "latitude": 21.1355621,
            "longitude": 94.857452
        }
    },
    {
        "name": "Hijapuri Police",
        "coordinates": {
            "latitude": 27.4819529,
            "longitude": 95.3390824
        }
    },
    {
        "name": "Panitola Police",
        "coordinates": {
            "latitude": 27.4929462,
            "longitude": 95.2685732
        }
    },
    {
        "name": "Unknown Police Station",
        "coordinates": {
            "latitude": 27.6360405,
            "longitude": 95.80629
        }
    },
    {
        "name": "Tourist Check",
        "coordinates": {
            "latitude": 28.5524233,
            "longitude": 84.2589292
        }
    },
    {
        "name": "Unknown Police Station",
        "coordinates": {
            "latitude": 27.6316217,
            "longitude": 85.5178425
        }
    },
    {
        "name": "mangalbazar police station",
        "coordinates": {
            "latitude": 27.6725186,
            "longitude": 85.3251065
        }
    },
    {
        "name": "Cox's Bazar Model Thana (Police Station)",
        "coordinates": {
            "latitude": 21.4448649,
            "longitude": 91.9735666
        }
    },
    {
        "name": "Tourist Police",
        "coordinates": {
            "latitude": 21.4278458,
            "longitude": 91.9720722
        }
    },
    {
        "name": "Chhajjapur Police Chowki",
        "coordinates": {
            "latitude": 26.5556172,
            "longitude": 82.6569518
        }
    },
    {
        "name": "Metropolitan Police Beat, Mandikhatar",
        "coordinates": {
            "latitude": 27.736285,
            "longitude": 85.3477888
        }
    },
    {
        "name": "\u0926\u0930\u092c\u093e\u0930\u092e\u093e\u0930\u094d\u0917 \u092a\u094d\u0930\u0939\u0930\u0940 \u091a\u094c\u0915\u0940",
        "coordinates": {
            "latitude": 27.7130123,
            "longitude": 85.318138
        }
    },
    {
        "name": "Traffic station",
        "coordinates": {
            "latitude": 27.694123,
            "longitude": 85.2821442
        }
    },
    {
        "name": "\u092a\u0930\u094d\u092f\u091f\u0915 \u092a\u094d\u0930\u0939\u0930\u0940",
        "coordinates": {
            "latitude": 27.6739246,
            "longitude": 85.3256523
        }
    },
    {
        "name": "District Police Station",
        "coordinates": {
            "latitude": 27.6806874,
            "longitude": 84.4351937
        }
    },
    {
        "name": "Mahanagariya Prahari Parisar",
        "coordinates": {
            "latitude": 27.7039529,
            "longitude": 85.3327052
        }
    },
    {
        "name": "Community Police Service",
        "coordinates": {
            "latitude": 27.7268479,
            "longitude": 85.3351501
        }
    },
    {
        "name": "Police Office, Kirtipur",
        "coordinates": {
            "latitude": 27.6777094,
            "longitude": 85.2750397
        }
    },
    {
        "name": "Metro Police Range - Pulchowk",
        "coordinates": {
            "latitude": 27.6772242,
            "longitude": 85.3165788
        }
    },
    {
        "name": "Mahanagariya Prahari Bit",
        "coordinates": {
            "latitude": 27.6734631,
            "longitude": 85.3156145
        }
    },
    {
        "name": "Harnaut Police Station",
        "coordinates": {
            "latitude": 25.3735004,
            "longitude": 85.536577
        }
    },
    {
        "name": "Myanmar Police Force Nyaung Shwe",
        "coordinates": {
            "latitude": 20.660623,
            "longitude": 96.9382504
        }
    },
    {
        "name": "Mahanagar Police Station",
        "coordinates": {
            "latitude": 26.8730854,
            "longitude": 80.9587271
        }
    },
    {
        "name": "Police",
        "coordinates": {
            "latitude": 27.6856352,
            "longitude": 85.3068102
        }
    },
    {
        "name": "Diamond Harbour Police Station",
        "coordinates": {
            "latitude": 22.1878691,
            "longitude": 88.189743
        }
    },
    {
        "name": "Ukhra Out Post",
        "coordinates": {
            "latitude": 23.6452743,
            "longitude": 87.2435686
        }
    },
    {
        "name": "Mangalsen Smriti Brigade",
        "coordinates": {
            "latitude": 28.1883627,
            "longitude": 82.5402824
        }
    },
    {
        "name": "Sworgadwari Police Station",
        "coordinates": {
            "latitude": 28.1220301,
            "longitude": 82.6733277
        }
    },
    {
        "name": "Madhepura Town Police Station",
        "coordinates": {
            "latitude": 25.9206215,
            "longitude": 86.7913192
        }
    },
    {
        "name": "Gahana Pokhari Police Bit",
        "coordinates": {
            "latitude": 27.7166129,
            "longitude": 85.3326743
        }
    },
    {
        "name": "Boudha Police Branch",
        "coordinates": {
            "latitude": 27.7203086,
            "longitude": 85.3597646
        }
    },
    {
        "name": "Sakkardara Police Station",
        "coordinates": {
            "latitude": 21.1294212,
            "longitude": 79.1140716
        }
    },
    {
        "name": "Raghunathpally police Station",
        "coordinates": {
            "latitude": 22.2280424,
            "longitude": 84.8157651
        }
    },
    {
        "name": "Unknown Police Station",
        "coordinates": {
            "latitude": 27.6735225,
            "longitude": 85.3761923
        }
    },
    {
        "name": "Traffic Police",
        "coordinates": {
            "latitude": 27.6738055,
            "longitude": 85.3666027
        }
    },
    {
        "name": "Kapan Police Beat",
        "coordinates": {
            "latitude": 27.7367724,
            "longitude": 85.3541516
        }
    },
    {
        "name": "Unknown Police Station",
        "coordinates": {
            "latitude": 27.6964061,
            "longitude": 84.4183649
        }
    },
    {
        "name": "Unknown Police Station",
        "coordinates": {
            "latitude": 27.7200561,
            "longitude": 85.3258869
        }
    },
    {
        "name": "Unknown Police Station",
        "coordinates": {
            "latitude": 27.5896309,
            "longitude": 85.4822047
        }
    },
    {
        "name": "Dsp Police Station",
        "coordinates": {
            "latitude": 26.4629499,
            "longitude": 87.2823761
        }
    },
    {
        "name": "Old Baneshwar Police Station",
        "coordinates": {
            "latitude": 27.7014959,
            "longitude": 85.3403139
        }
    },
    {
        "name": "Bettiah Main Police Station",
        "coordinates": {
            "latitude": 26.8013017,
            "longitude": 84.5351937
        }
    },
    {
        "name": "District Police office",
        "coordinates": {
            "latitude": 28.2639958,
            "longitude": 83.600564
        }
    },
    {
        "name": "Chowk Police Station",
        "coordinates": {
            "latitude": 25.4372308,
            "longitude": 81.8330585
        }
    },
    {
        "name": "Metropolitan Police Circle",
        "coordinates": {
            "latitude": 27.7184446,
            "longitude": 85.3094495
        }
    },
    {
        "name": "Tilingatar Police Station",
        "coordinates": {
            "latitude": 27.7380096,
            "longitude": 85.3255678
        }
    },
    {
        "name": "Mahanagariya Prahari Pahara Gana HQ",
        "coordinates": {
            "latitude": 27.7359145,
            "longitude": 85.322846
        }
    },
    {
        "name": "Golfutar police Bit",
        "coordinates": {
            "latitude": 27.7474597,
            "longitude": 85.3483052
        }
    },
    {
        "name": "Mahmoorganj Police Station , Bhelupur,Varanasi.",
        "coordinates": {
            "latitude": 25.3028749,
            "longitude": 82.9734357
        }
    },
    {
        "name": "Nepal Police",
        "coordinates": {
            "latitude": 27.7005014,
            "longitude": 85.3247576
        }
    },
    {
        "name": "SOCIAL POLICE SERVICE",
        "coordinates": {
            "latitude": 27.6860297,
            "longitude": 85.2822864
        }
    },
    {
        "name": "Mahadev Basi Polish beat",
        "coordinates": {
            "latitude": 27.7504348,
            "longitude": 85.0662255
        }
    },
    {
        "name": "Tourist Police Sub-Section, Baidam",
        "coordinates": {
            "latitude": 28.1992872,
            "longitude": 83.9695651
        }
    },
    {
        "name": "Ubhaon Police Station",
        "coordinates": {
            "latitude": 26.132733,
            "longitude": 83.8669181
        }
    },
    {
        "name": "\u0915\u093e\u0932\u093f\u092e\u093e\u091f\u0940 \u092a\u094d\u0930\u0939\u0930\u0940 \u091a\u094c\u0915\u0940",
        "coordinates": {
            "latitude": 27.697371,
            "longitude": 85.2993955
        }
    },
    {
        "name": "Manicktala P.S",
        "coordinates": {
            "latitude": 22.5841465,
            "longitude": 88.3788957
        }
    },
    {
        "name": "Dugawan Police Chowki",
        "coordinates": {
            "latitude": 26.8458026,
            "longitude": 80.918437
        }
    },
    {
        "name": "\u092a\u094d\u0930\u0939\u0930\u0940 \u092c\u0941\u0925",
        "coordinates": {
            "latitude": 27.6924233,
            "longitude": 85.2978771
        }
    },
    {
        "name": "\u0928\u0947\u092a\u093e\u0932 \u092a\u094d\u0930\u0939\u0930\u0940",
        "coordinates": {
            "latitude": 27.678822,
            "longitude": 85.3488276
        }
    },
    {
        "name": "Rastriya Suchana Aayog",
        "coordinates": {
            "latitude": 27.681951,
            "longitude": 85.3475686
        }
    },
    {
        "name": "Unknown Police Station",
        "coordinates": {
            "latitude": 27.7315852,
            "longitude": 85.3089566
        }
    },
    {
        "name": "Unknown Police Station",
        "coordinates": {
            "latitude": 29.7644966,
            "longitude": 84.0338522
        }
    },
    {
        "name": "Sanothimi Police Station",
        "coordinates": {
            "latitude": 27.6824976,
            "longitude": 85.3719676
        }
    },
    {
        "name": "Muchipara Police Station",
        "coordinates": {
            "latitude": 22.566664,
            "longitude": 88.3653411
        }
    },
    {
        "name": "Unknown Police Station",
        "coordinates": {
            "latitude": 27.5840669,
            "longitude": 86.4093379
        }
    },
    {
        "name": "Ranibari Police station",
        "coordinates": {
            "latitude": 27.7301705,
            "longitude": 85.3179649
        }
    },
    {
        "name": "Dewanjgonj Police Station",
        "coordinates": {
            "latitude": 25.1641658,
            "longitude": 89.7649895
        }
    },
    {
        "name": "Lokanthali Police",
        "coordinates": {
            "latitude": 27.6746428,
            "longitude": 85.3585513
        }
    },
    {
        "name": "Bashistha Police Station",
        "coordinates": {
            "latitude": 26.1126488,
            "longitude": 91.7948727
        }
    },
    {
        "name": "Office Of The Superintendent Of Police, Nadia",
        "coordinates": {
            "latitude": 23.4094123,
            "longitude": 88.4817637
        }
    },
    {
        "name": "Pabna Sadar Police Station",
        "coordinates": {
            "latitude": 24.0088832,
            "longitude": 89.2399393
        }
    },
    {
        "name": "Temporary police Beat",
        "coordinates": {
            "latitude": 27.7230833,
            "longitude": 85.3017347
        }
    },
    {
        "name": "Khandagiri Police Station",
        "coordinates": {
            "latitude": 20.2595201,
            "longitude": 85.7898677
        }
    },
    {
        "name": "Chandanpur Police Station",
        "coordinates": {
            "latitude": 19.8897971,
            "longitude": 85.8174491
        }
    },
    {
        "name": "Police Station",
        "coordinates": {
            "latitude": 24.79231,
            "longitude": 93.0028667
        }
    },
    {
        "name": "Sikriganj Police Station",
        "coordinates": {
            "latitude": 26.5030254,
            "longitude": 83.2004017
        }
    },
    {
        "name": "Meherpur Police Station",
        "coordinates": {
            "latitude": 23.7789572,
            "longitude": 88.6258536
        }
    },
    {
        "name": "Mohangonj Police Station",
        "coordinates": {
            "latitude": 24.8744054,
            "longitude": 90.9814683
        }
    },
    {
        "name": "Potiya Thana",
        "coordinates": {
            "latitude": 22.2953273,
            "longitude": 91.98097
        }
    },
    {
        "name": "Govt. Railway Police Station, Bhubaneswar",
        "coordinates": {
            "latitude": 20.2662583,
            "longitude": 85.8432199
        }
    },
    {
        "name": "Govt. Railway Police Station, Bhubaneswar",
        "coordinates": {
            "latitude": 20.2661224,
            "longitude": 85.8439279
        }
    },
    {
        "name": "Kumardungi Police Station.",
        "coordinates": {
            "latitude": 22.2240579,
            "longitude": 85.8749721
        }
    },
    {
        "name": "Chutia Police Station.",
        "coordinates": {
            "latitude": 23.3536122,
            "longitude": 85.3378341
        }
    },
    {
        "name": "Hat Gamaria Police Station",
        "coordinates": {
            "latitude": 22.2761304,
            "longitude": 85.7389419
        }
    },
    {
        "name": "Khunti Police Station",
        "coordinates": {
            "latitude": 23.0765241,
            "longitude": 85.2784153
        }
    },
    {
        "name": "Murhu Police Station",
        "coordinates": {
            "latitude": 22.961593,
            "longitude": 85.2796156
        }
    },
    {
        "name": "Police Station",
        "coordinates": {
            "latitude": 22.0065898,
            "longitude": 82.5783767
        }
    },
    {
        "name": "Baguiati Police Station",
        "coordinates": {
            "latitude": 22.6203718,
            "longitude": 88.4254168
        }
    },
    {
        "name": "Area Police station Aabhukhaireni",
        "coordinates": {
            "latitude": 27.9000873,
            "longitude": 84.5376592
        }
    },
    {
        "name": "Moynamoti Highway Police Station",
        "coordinates": {
            "latitude": 23.4798511,
            "longitude": 91.1249432
        }
    },
    {
        "name": "Town Thana",
        "coordinates": {
            "latitude": 19.3137733,
            "longitude": 84.7826863
        }
    },
    {
        "name": "Tiljala Traffic Guard",
        "coordinates": {
            "latitude": 22.5425798,
            "longitude": 88.3989293
        }
    },
    {
        "name": "Parama - Police Station",
        "coordinates": {
            "latitude": 22.5418694,
            "longitude": 88.3988261
        }
    },
    {
        "name": "Sector - V Police Station",
        "coordinates": {
            "latitude": 22.5767793,
            "longitude": 88.4298724
        }
    },
    {
        "name": "Bhowanipore Police Station",
        "coordinates": {
            "latitude": 22.5266453,
            "longitude": 88.3459941
        }
    },
    {
        "name": "Kalapara Police Station",
        "coordinates": {
            "latitude": 21.9840018,
            "longitude": 90.2234878
        }
    },
    {
        "name": "Kakdwip Police Station",
        "coordinates": {
            "latitude": 21.8736519,
            "longitude": 88.186992
        }
    },
    {
        "name": "No 3 Police Station (\u1021\u1019\u103e\u1010\u103a\u2212\u1043 \u101b\u1032\u1005\u1001\u1014\u103a\u1038)",
        "coordinates": {
            "latitude": 21.9818913,
            "longitude": 96.1094369
        }
    },
    {
        "name": "Unknown Police Station",
        "coordinates": {
            "latitude": 21.9921481,
            "longitude": 96.1168723
        }
    },
    {
        "name": "Unknown Police Station",
        "coordinates": {
            "latitude": 27.7312473,
            "longitude": 85.3370363
        }
    },
    {
        "name": "Police Station",
        "coordinates": {
            "latitude": 22.6254208,
            "longitude": 97.3015402
        }
    },
    {
        "name": "Chawkbazar Police Station",
        "coordinates": {
            "latitude": 22.3575639,
            "longitude": 91.8391211
        }
    },
    {
        "name": "No 1 Police Station Hinthada",
        "coordinates": {
            "latitude": 17.6500132,
            "longitude": 95.4591579
        }
    },
    {
        "name": "RAB-7 Chittagong Office",
        "coordinates": {
            "latitude": 22.3722533,
            "longitude": 91.8473258
        }
    },
    {
        "name": "District Traffic Office",
        "coordinates": {
            "latitude": 26.454406,
            "longitude": 87.2797351
        }
    },
    {
        "name": "Hatkhola polic",
        "coordinates": {
            "latitude": 26.460198,
            "longitude": 87.2948165
        }
    },
    {
        "name": "Gaurighat Police Beat",
        "coordinates": {
            "latitude": 27.7133153,
            "longitude": 85.3496355
        }
    },
    {
        "name": "\u1019\u102d\u102f\u1038\u1000\u102f\u1010\u103a \u101b\u1032\u1005\u1001\u1014\u103a\u1038",
        "coordinates": {
            "latitude": 22.9197132,
            "longitude": 96.4961378
        }
    },
    {
        "name": "Agartala West Police Station",
        "coordinates": {
            "latitude": 23.8296782,
            "longitude": 91.2782665
        }
    },
    {
        "name": "Daulatkhan Police Station",
        "coordinates": {
            "latitude": 22.6057511,
            "longitude": 90.7469055
        }
    },
    {
        "name": "\u1081\u1030\u1004\u103a\u1038\u1010\u1019\u103a\u1087\u107c\u1030\u1010\u103a\u1087 \u1019\u1062\u1086 (2)",
        "coordinates": {
            "latitude": 22.9652907,
            "longitude": 97.7628441
        }
    },
    {
        "name": "No 2 Police Station",
        "coordinates": {
            "latitude": 22.0116837,
            "longitude": 96.092265
        }
    },
    {
        "name": "No 4 Police Station",
        "coordinates": {
            "latitude": 22.0086651,
            "longitude": 96.0863491
        }
    },
    {
        "name": "No 1 Police Station (\u1021\u1019\u103e\u1010\u103a(\u1041) \u101b\u1032\u1005\u1001\u1014\u103a\u1038)",
        "coordinates": {
            "latitude": 21.9919895,
            "longitude": 96.1168177
        }
    },
    {
        "name": "No 9",
        "coordinates": {
            "latitude": 21.9773341,
            "longitude": 96.0822115
        }
    },
    {
        "name": "No 6 Police Station",
        "coordinates": {
            "latitude": 21.984042,
            "longitude": 96.069705
        }
    },
    {
        "name": "No 1 Police Station",
        "coordinates": {
            "latitude": 21.8745882,
            "longitude": 95.9825619
        }
    },
    {
        "name": "No 11 Police Station",
        "coordinates": {
            "latitude": 21.9578475,
            "longitude": 96.0859242
        }
    },
    {
        "name": "No 7",
        "coordinates": {
            "latitude": 21.9710638,
            "longitude": 96.0579885
        }
    },
    {
        "name": "Separated Police Station",
        "coordinates": {
            "latitude": 21.622404,
            "longitude": 96.1311843
        }
    },
    {
        "name": "Agartala West Women Police Station",
        "coordinates": {
            "latitude": 23.8291741,
            "longitude": 91.278355
        }
    },
    {
        "name": "Kotwali Police Station",
        "coordinates": {
            "latitude": 23.1655415,
            "longitude": 89.2137919
        }
    },
    {
        "name": "Unknown Police Station",
        "coordinates": {
            "latitude": 16.577461,
            "longitude": 82.0029545
        }
    },
    {
        "name": "Amalapuram II Town Police Station",
        "coordinates": {
            "latitude": 16.578069,
            "longitude": 82.0003142
        }
    },
    {
        "name": "Nakla Police Station",
        "coordinates": {
            "latitude": 24.9688831,
            "longitude": 90.1790297
        }
    },
    {
        "name": "Unknown Police Station",
        "coordinates": {
            "latitude": 26.4819016,
            "longitude": 86.8341297
        }
    },
    {
        "name": "Tangail Police Station",
        "coordinates": {
            "latitude": 24.246758,
            "longitude": 89.9137336
        }
    },
    {
        "name": "Police checkpost",
        "coordinates": {
            "latitude": 28.8166105,
            "longitude": 83.8664761
        }
    },
    {
        "name": "wada prahari karyalaya siraha road",
        "coordinates": {
            "latitude": 26.5376059,
            "longitude": 86.7459048
        }
    },
    {
        "name": "temporary police post",
        "coordinates": {
            "latitude": 26.5442164,
            "longitude": 86.7423945
        }
    },
    {
        "name": "Police bit",
        "coordinates": {
            "latitude": 26.543466,
            "longitude": 86.7473664
        }
    },
    {
        "name": "police post",
        "coordinates": {
            "latitude": 26.5291371,
            "longitude": 86.9223398
        }
    },
    {
        "name": "\u09ab\u09c7\u09a8\u09c0 \u09ae\u09a1\u09c7\u09b2 \u09a5\u09be\u09a8\u09be",
        "coordinates": {
            "latitude": 23.0110161,
            "longitude": 91.3978614
        }
    },
    {
        "name": "New Market Police Station",
        "coordinates": {
            "latitude": 22.5627183,
            "longitude": 88.3541137
        }
    },
    {
        "name": "Konark Police Station",
        "coordinates": {
            "latitude": 19.8888365,
            "longitude": 86.0921955
        }
    },
    {
        "name": "Kotwali Thana",
        "coordinates": {
            "latitude": 24.7576475,
            "longitude": 90.4123025
        }
    },
    {
        "name": "Mohalchari Thana",
        "coordinates": {
            "latitude": 22.9328899,
            "longitude": 92.0339828
        }
    },
    {
        "name": "Baraichari Thana",
        "coordinates": {
            "latitude": 22.5023763,
            "longitude": 92.1380259
        }
    },
    {
        "name": "Bardarban Sadar Thana",
        "coordinates": {
            "latitude": 22.1944716,
            "longitude": 92.2163562
        }
    },
    {
        "name": "Lama Thana",
        "coordinates": {
            "latitude": 21.7719849,
            "longitude": 92.198681
        }
    },
    {
        "name": "Kalta Police Outpost",
        "coordinates": {
            "latitude": 21.9669497,
            "longitude": 85.2185857
        }
    },
    {
        "name": "District traffic police office",
        "coordinates": {
            "latitude": 27.2222967,
            "longitude": 86.7895458
        }
    },
    {
        "name": "Tourist Police",
        "coordinates": {
            "latitude": 28.1637681,
            "longitude": 85.337056
        }
    },
    {
        "name": "District Police Office",
        "coordinates": {
            "latitude": 27.2117438,
            "longitude": 86.7926078
        }
    },
    {
        "name": "Bhasantek Thana",
        "coordinates": {
            "latitude": 23.8065843,
            "longitude": 90.3881025
        }
    },
    {
        "name": "police offic ghoretar",
        "coordinates": {
            "latitude": 27.0214949,
            "longitude": 87.1223779
        }
    },
    {
        "name": "\u09aa\u09bf\u09b0\u09cb\u099c\u09aa\u09c1\u09b0 \u09b8\u09a6\u09b0 \u09a5\u09be\u09a8\u09be",
        "coordinates": {
            "latitude": 22.5793258,
            "longitude": 89.9720006
        }
    },
    {
        "name": "Sadar Solan Police Station",
        "coordinates": {
            "latitude": 21.1617741,
            "longitude": 79.0714018
        }
    },
    {
        "name": "\u091c\u093f\u0932\u094d\u0932\u093e \u092a\u094d\u0930\u0939\u0930\u0940 \u0915\u093e\u0930\u094d\u092f\u093e\u0932\u092f",
        "coordinates": {
            "latitude": 27.6689442,
            "longitude": 86.0502118
        }
    },
    {
        "name": "T.O.P.",
        "coordinates": {
            "latitude": 23.3761641,
            "longitude": 85.3332241
        }
    },
    {
        "name": "police station",
        "coordinates": {
            "latitude": 23.3660152,
            "longitude": 85.324564
        }
    },
    {
        "name": "Pathein Police Office",
        "coordinates": {
            "latitude": 16.7887306,
            "longitude": 94.7459111
        }
    },
    {
        "name": "Renukoot Police Station",
        "coordinates": {
            "latitude": 24.2160441,
            "longitude": 83.0355274
        }
    },
    {
        "name": "balugaon police station",
        "coordinates": {
            "latitude": 19.7613779,
            "longitude": 85.2139182
        }
    },
    {
        "name": "Police Station",
        "coordinates": {
            "latitude": 18.8249657,
            "longitude": 95.2127974
        }
    },
    {
        "name": "Mohan Nagar Police Station, Durg",
        "coordinates": {
            "latitude": 21.1968534,
            "longitude": 81.2877296
        }
    },
    {
        "name": "Chamakhandi Police Station",
        "coordinates": {
            "latitude": 19.3406031,
            "longitude": 84.9341383
        }
    },
    {
        "name": "Makwanpur Police Station",
        "coordinates": {
            "latitude": 27.4319384,
            "longitude": 85.0278321
        }
    },
    {
        "name": "Vatara Police Station",
        "coordinates": {
            "latitude": 23.7974748,
            "longitude": 90.4240413
        }
    },
    {
        "name": "Poat Ba Thiri Township (Pattar Police Station)",
        "coordinates": {
            "latitude": 19.8001803,
            "longitude": 96.1593604
        }
    },
    {
        "name": "\u1041 \u101b\u1032\u1005\u1001\u1014\u103a\u1038",
        "coordinates": {
            "latitude": 19.7413737,
            "longitude": 96.1284828
        }
    },
    {
        "name": "\u1041 \u101b\u1032\u1005\u1001\u1014\u103a\u1038",
        "coordinates": {
            "latitude": 19.7505932,
            "longitude": 96.1222172
        }
    },
    {
        "name": "Tourism Police",
        "coordinates": {
            "latitude": 19.7246199,
            "longitude": 96.1105014
        }
    },
    {
        "name": "Parbatipur Police Station",
        "coordinates": {
            "latitude": 25.6636104,
            "longitude": 88.9063278
        }
    },
    {
        "name": "Police Station",
        "coordinates": {
            "latitude": 20.7860667,
            "longitude": 85.5490916
        }
    },
    {
        "name": "Police Station",
        "coordinates": {
            "latitude": 20.9325581,
            "longitude": 85.5415127
        }
    },
    {
        "name": "Police Station, Tumusingha",
        "coordinates": {
            "latitude": 20.8099593,
            "longitude": 85.4847572
        }
    },
    {
        "name": "Police Control Room Nagpur City",
        "coordinates": {
            "latitude": 21.1545937,
            "longitude": 79.0725174
        }
    },
    {
        "name": "Metropolitan Police Post",
        "coordinates": {
            "latitude": 27.7121975,
            "longitude": 85.3388588
        }
    },
    {
        "name": "II Town Central Crime Station",
        "coordinates": {
            "latitude": 16.9916278,
            "longitude": 81.7772132
        }
    },
    {
        "name": "II Town Law And Order Police Station",
        "coordinates": {
            "latitude": 16.9917549,
            "longitude": 81.7771515
        }
    },
    {
        "name": "I Town Law And Order Police Station",
        "coordinates": {
            "latitude": 17.0009146,
            "longitude": 81.77106
        }
    },
    {
        "name": "I Town Central Crime Station",
        "coordinates": {
            "latitude": 17.0009288,
            "longitude": 81.771046
        }
    },
    {
        "name": "City Traffic Police Station & Circle Office",
        "coordinates": {
            "latitude": 17.0057103,
            "longitude": 81.7788238
        }
    },
    {
        "name": "III Town Central Crime Station",
        "coordinates": {
            "latitude": 17.0057577,
            "longitude": 81.7785657
        }
    },
    {
        "name": "Prakasham Nagar Police Station",
        "coordinates": {
            "latitude": 17.0070088,
            "longitude": 81.7879635
        }
    },
    {
        "name": "Mahila Police Station",
        "coordinates": {
            "latitude": 17.0090634,
            "longitude": 81.7696775
        }
    },
    {
        "name": "III Town Law And Order Police Station",
        "coordinates": {
            "latitude": 17.0091544,
            "longitude": 81.7697628
        }
    },
    {
        "name": "Unified maoist camp previoulsy",
        "coordinates": {
            "latitude": 26.6642214,
            "longitude": 87.7269249
        }
    },
    {
        "name": "Police Res. Colony",
        "coordinates": {
            "latitude": 20.6515347,
            "longitude": 85.5940985
        }
    },
    {
        "name": "Jail",
        "coordinates": {
            "latitude": 20.6486935,
            "longitude": 85.5927359
        }
    },
    {
        "name": "Alambagh Police Station",
        "coordinates": {
            "latitude": 26.8262917,
            "longitude": 80.9095211
        }
    },
    {
        "name": "Jharigaon police Station",
        "coordinates": {
            "latitude": 19.7140931,
            "longitude": 82.3658805
        }
    },
    {
        "name": "\u897f\u85cf\u516c\u5b89\u5385\u51fa\u5165\u5883\u7ba1\u7406\u5c40",
        "coordinates": {
            "latitude": 29.6546535,
            "longitude": 91.1430882
        }
    },
    {
        "name": "\u62c9\u8428\u5e02\u516c\u5b89\u5c40",
        "coordinates": {
            "latitude": 29.6609991,
            "longitude": 91.1332117
        }
    },
    {
        "name": "\u091c\u093f\u0932\u094d\u0932\u093e \u092a\u094d\u0930\u0939\u0930\u0940 \u0915\u093e\u0930\u094d\u092f\u093e\u0932\u092f",
        "coordinates": {
            "latitude": 28.2278934,
            "longitude": 84.3785885
        }
    },
    {
        "name": "Myoma Police Station",
        "coordinates": {
            "latitude": 22.1171635,
            "longitude": 95.1295164
        }
    },
    {
        "name": "Toungup Police Station",
        "coordinates": {
            "latitude": 18.8572313,
            "longitude": 94.23841
        }
    },
    {
        "name": "Mrauk-U Porice Station",
        "coordinates": {
            "latitude": 20.592802,
            "longitude": 93.1952826
        }
    },
    {
        "name": "Gittikhadan Police Station",
        "coordinates": {
            "latitude": 21.173675,
            "longitude": 79.0609179
        }
    },
    {
        "name": "Ambazari Police Station",
        "coordinates": {
            "latitude": 21.1485857,
            "longitude": 79.0553787
        }
    },
    {
        "name": "Jetty Police Station",
        "coordinates": {
            "latitude": 20.159454,
            "longitude": 92.9018334
        }
    },
    {
        "name": "Police Station-Ajni",
        "coordinates": {
            "latitude": 21.1233991,
            "longitude": 79.0854254
        }
    },
    {
        "name": "Nagdhunga Checkpost",
        "coordinates": {
            "latitude": 27.7064432,
            "longitude": 85.2056663
        }
    },
    {
        "name": "\u101b\u1032\u1005\u1001\u1014\u103a\u1038",
        "coordinates": {
            "latitude": 20.1434733,
            "longitude": 92.8996731
        }
    },
    {
        "name": "police",
        "coordinates": {
            "latitude": 27.1508798,
            "longitude": 87.244517
        }
    },
    {
        "name": "Barharia Police Station",
        "coordinates": {
            "latitude": 26.3165063,
            "longitude": 84.4561991
        }
    },
    {
        "name": "Unknown Police Station",
        "coordinates": {
            "latitude": 26.6115128,
            "longitude": 88.1052275
        }
    },
    {
        "name": "Sonegao Police Station",
        "coordinates": {
            "latitude": 21.0905381,
            "longitude": 79.0643585
        }
    },
    {
        "name": "Nandanvan Police Station",
        "coordinates": {
            "latitude": 21.1304545,
            "longitude": 79.1221017
        }
    },
    {
        "name": "Lakdapul Police Station",
        "coordinates": {
            "latitude": 21.147774,
            "longitude": 79.1128324
        }
    },
    {
        "name": "Ganeshpeth Police Station",
        "coordinates": {
            "latitude": 21.1427057,
            "longitude": 79.1007956
        }
    },
    {
        "name": "Police Station Dhantoli",
        "coordinates": {
            "latitude": 21.1373887,
            "longitude": 79.0853548
        }
    },
    {
        "name": "Police Station",
        "coordinates": {
            "latitude": 21.144064,
            "longitude": 79.0835593
        }
    },
    {
        "name": "Sitabuldi Police Station",
        "coordinates": {
            "latitude": 21.1442992,
            "longitude": 79.0803378
        }
    },
    {
        "name": "Golchha Marg Police Chowky",
        "coordinates": {
            "latitude": 21.1632235,
            "longitude": 79.0766871
        }
    },
    {
        "name": "Police Station Pachpaoli",
        "coordinates": {
            "latitude": 21.164244,
            "longitude": 79.1027926
        }
    },
    {
        "name": "Jaripatka Police Station",
        "coordinates": {
            "latitude": 21.1886888,
            "longitude": 79.0918769
        }
    },
    {
        "name": "Wadi Police Station",
        "coordinates": {
            "latitude": 21.1473628,
            "longitude": 78.9914947
        }
    },
    {
        "name": "RanaPratapnagar Police Station",
        "coordinates": {
            "latitude": 21.1155372,
            "longitude": 79.0398337
        }
    },
    {
        "name": "MIDC Police Station",
        "coordinates": {
            "latitude": 21.1247647,
            "longitude": 79.011034
        }
    },
    {
        "name": "Yashodhara Nagar Police Station",
        "coordinates": {
            "latitude": 21.1813328,
            "longitude": 79.1255862
        }
    },
    {
        "name": "Kalamana Police Station",
        "coordinates": {
            "latitude": 21.1627994,
            "longitude": 79.1455904
        }
    },
    {
        "name": "Hudkeshwar Police Station",
        "coordinates": {
            "latitude": 21.105796,
            "longitude": 79.1171854
        }
    },
    {
        "name": "\u09b8\u09cd\u09ac\u09b0\u09c2\u09aa\u0995\u09be\u09a0\u09c0 \u09a5\u09be\u09a8\u09be",
        "coordinates": {
            "latitude": 22.7477996,
            "longitude": 90.0999268
        }
    },
    {
        "name": "Community police post (DMP)",
        "coordinates": {
            "latitude": 23.7413027,
            "longitude": 90.3702404
        }
    },
    {
        "name": "police",
        "coordinates": {
            "latitude": 27.5241044,
            "longitude": 85.4775798
        }
    },
    {
        "name": "Chalna Police Station",
        "coordinates": {
            "latitude": 22.6009454,
            "longitude": 89.5162764
        }
    },
    {
        "name": "CBT Police Fari",
        "coordinates": {
            "latitude": 23.7400748,
            "longitude": 90.3695979
        }
    },
    {
        "name": "Hazaribagh Thana",
        "coordinates": {
            "latitude": 23.7347071,
            "longitude": 90.3651908
        }
    },
    {
        "name": "District Police Headquarters",
        "coordinates": {
            "latitude": 26.5685546,
            "longitude": 88.0738003
        }
    },
    {
        "name": "Police Station",
        "coordinates": {
            "latitude": 27.0436104,
            "longitude": 88.2649887
        }
    },
    {
        "name": "INF Kotdadha;Police office (2)",
        "coordinates": {
            "latitude": 29.5163439,
            "longitude": 81.8325234
        }
    },
    {
        "name": "Naval Police Office",
        "coordinates": {
            "latitude": 23.710281,
            "longitude": 90.3895424
        }
    },
    {
        "name": "Section Police Fari",
        "coordinates": {
            "latitude": 23.7243851,
            "longitude": 90.3755841
        }
    },
    {
        "name": "Jorabagan Police Station",
        "coordinates": {
            "latitude": 22.5931156,
            "longitude": 88.356043
        }
    },
    {
        "name": "Rayer Bazaar Police Phari",
        "coordinates": {
            "latitude": 23.7467454,
            "longitude": 90.36291
        }
    },
    {
        "name": "Hazahbagh Police",
        "coordinates": {
            "latitude": 23.7364854,
            "longitude": 90.3634857
        }
    },
    {
        "name": "Behala Thana",
        "coordinates": {
            "latitude": 22.5035284,
            "longitude": 88.3190032
        }
    },
    {
        "name": "Chuadanga Sadar Police Station",
        "coordinates": {
            "latitude": 23.6449862,
            "longitude": 88.8444435
        }
    },
    {
        "name": "Haripur Chouki",
        "coordinates": {
            "latitude": 27.7116894,
            "longitude": 84.4841015
        }
    },
    {
        "name": "\u09ae\u09a0\u09ac\u09be\u09dc\u09bf\u09df\u09be \u09a5\u09be\u09a8\u09be",
        "coordinates": {
            "latitude": 22.2842057,
            "longitude": 89.9591688
        }
    },
    {
        "name": "\u09ac\u09be\u09a8\u09be\u09b0\u09c0\u09aa\u09be\u09dc\u09be \u09a5\u09be\u09a8\u09be",
        "coordinates": {
            "latitude": 22.786797,
            "longitude": 90.1567561
        }
    },
    {
        "name": "District Traffic Office",
        "coordinates": {
            "latitude": 27.680216,
            "longitude": 84.4306388
        }
    },
    {
        "name": "district police training center",
        "coordinates": {
            "latitude": 27.6947448,
            "longitude": 84.4393659
        }
    },
    {
        "name": "Police Station",
        "coordinates": {
            "latitude": 27.6712321,
            "longitude": 84.4384065
        }
    },
    {
        "name": "Rajesultanpur KOTWALI",
        "coordinates": {
            "latitude": 26.3063088,
            "longitude": 83.0790391
        }
    },
    {
        "name": "Manahari Police Station",
        "coordinates": {
            "latitude": 27.5396632,
            "longitude": 84.8059241
        }
    },
    {
        "name": "Bizpore Police Station",
        "coordinates": {
            "latitude": 22.9414286,
            "longitude": 88.4454561
        }
    },
    {
        "name": "Bachhawara",
        "coordinates": {
            "latitude": 25.5811092,
            "longitude": 85.8933732
        }
    },
    {
        "name": "Police",
        "coordinates": {
            "latitude": 27.680876,
            "longitude": 84.5129871
        }
    },
    {
        "name": "\u0995\u09be\u09ae\u09b0\u09be\u0999\u09cd\u0997\u09c0 \u099a\u09b0 \u09a5\u09be\u09a8\u09be",
        "coordinates": {
            "latitude": 23.7097293,
            "longitude": 90.3674657
        }
    },
    {
        "name": "\u092a\u094d\u0930\u0939\u0930\u0940 \u091a\u094c\u0915\u0940",
        "coordinates": {
            "latitude": 27.6785543,
            "longitude": 85.3412105
        }
    },
    {
        "name": "\u092a\u094d\u0930\u0939\u0930\u0940 \u091a\u094c\u0915\u0940",
        "coordinates": {
            "latitude": 27.6760937,
            "longitude": 85.3379616
        }
    },
    {
        "name": "\u1019\u103c\u102d\u102f\u1037\u101e\u102c\u101b\u1032\u1005\u1001\u1014\u103a\u1038",
        "coordinates": {
            "latitude": 21.6903108,
            "longitude": 95.7150434
        }
    },
    {
        "name": "Police Station",
        "coordinates": {
            "latitude": 27.9915981,
            "longitude": 84.6272815
        }
    },
    {
        "name": "Daulatpur Police Station",
        "coordinates": {
            "latitude": 22.8782921,
            "longitude": 89.518416
        }
    },
    {
        "name": "Jonai Police Station",
        "coordinates": {
            "latitude": 27.822811,
            "longitude": 95.2297032
        }
    },
    {
        "name": "Tezpur Police Station",
        "coordinates": {
            "latitude": 26.6230515,
            "longitude": 92.7969708
        }
    },
    {
        "name": "\u09ae\u09a6\u09a8 \u09a5\u09be\u09a8\u09be",
        "coordinates": {
            "latitude": 24.71802,
            "longitude": 90.9607867
        }
    },
    {
        "name": "Netrokona Sadar Police Station",
        "coordinates": {
            "latitude": 24.8724,
            "longitude": 90.7282748
        }
    },
    {
        "name": "Budhabare Police Station",
        "coordinates": {
            "latitude": 26.7199292,
            "longitude": 88.0496146
        }
    },
    {
        "name": "Traffic Police",
        "coordinates": {
            "latitude": 26.723844,
            "longitude": 85.9161762
        }
    },
    {
        "name": "Mahabir Chok",
        "coordinates": {
            "latitude": 26.7275403,
            "longitude": 85.9253902
        }
    },
    {
        "name": "Police Station",
        "coordinates": {
            "latitude": 19.3531929,
            "longitude": 84.9865109
        }
    },
    {
        "name": "Kaliachak Police Station",
        "coordinates": {
            "latitude": 24.8629428,
            "longitude": 88.0174502
        }
    },
    {
        "name": "Police station",
        "coordinates": {
            "latitude": 28.8371949,
            "longitude": 83.787083
        }
    },
    {
        "name": "Check post",
        "coordinates": {
            "latitude": 28.6021107,
            "longitude": 83.6431552
        }
    },
    {
        "name": "Jorhat Main Police Station",
        "coordinates": {
            "latitude": 26.7549643,
            "longitude": 94.2113717
        }
    },
    {
        "name": "Police Check post",
        "coordinates": {
            "latitude": 27.7033486,
            "longitude": 84.4156837
        }
    },
    {
        "name": "Check post",
        "coordinates": {
            "latitude": 27.584158,
            "longitude": 83.8712996
        }
    },
    {
        "name": "Check post",
        "coordinates": {
            "latitude": 27.6409833,
            "longitude": 83.5984632
        }
    },
    {
        "name": "Check post",
        "coordinates": {
            "latitude": 27.6454109,
            "longitude": 84.1292308
        }
    },
    {
        "name": "Jorhat Fire Station",
        "coordinates": {
            "latitude": 26.7548007,
            "longitude": 94.2114172
        }
    },
    {
        "name": "Kadamtali Thana",
        "coordinates": {
            "latitude": 23.6973198,
            "longitude": 90.4576916
        }
    },
    {
        "name": "Peerbahor",
        "coordinates": {
            "latitude": 25.619931,
            "longitude": 85.1554298
        }
    },
    {
        "name": "Jugsalai Police Station",
        "coordinates": {
            "latitude": 22.7826968,
            "longitude": 86.1847328
        }
    },
    {
        "name": "Wari Thana",
        "coordinates": {
            "latitude": 23.7149794,
            "longitude": 90.4188432
        }
    },
    {
        "name": "Police Lines, Sylhet Range",
        "coordinates": {
            "latitude": 24.8990917,
            "longitude": 91.861124
        }
    },
    {
        "name": "Chitalmari Police Station",
        "coordinates": {
            "latitude": 22.7880021,
            "longitude": 89.8779544
        }
    },
    {
        "name": "Unknown Police Station",
        "coordinates": {
            "latitude": 27.0719184,
            "longitude": 89.8815101
        }
    },
    {
        "name": "trafic police box",
        "coordinates": {
            "latitude": 23.7936137,
            "longitude": 90.4107251
        }
    },
    {
        "name": "Noyatola Police Fari",
        "coordinates": {
            "latitude": 23.757787,
            "longitude": 90.4113493
        }
    },
    {
        "name": "Irilbung police station",
        "coordinates": {
            "latitude": 24.7551637,
            "longitude": 93.9801317
        }
    },
    {
        "name": "Pakokku Police Station",
        "coordinates": {
            "latitude": 21.3345848,
            "longitude": 95.0860224
        }
    },
    {
        "name": "Jorpati Police Station",
        "coordinates": {
            "latitude": 27.7213663,
            "longitude": 85.3726523
        }
    },
    {
        "name": "Unknown Police Station",
        "coordinates": {
            "latitude": 23.3318575,
            "longitude": 86.3659142
        }
    },
    {
        "name": "Rapid Action Batalion (RAB)",
        "coordinates": {
            "latitude": 23.7464185,
            "longitude": 90.3519096
        }
    },
    {
        "name": "Sankhar Police Force",
        "coordinates": {
            "latitude": 27.8736556,
            "longitude": 83.9263852
        }
    },
    {
        "name": "Satkania Thana",
        "coordinates": {
            "latitude": 22.0748855,
            "longitude": 92.0522075
        }
    },
    {
        "name": "Police checkpost",
        "coordinates": {
            "latitude": 26.8745706,
            "longitude": 84.7817225
        }
    },
    {
        "name": "CMP Headquarter",
        "coordinates": {
            "latitude": 22.335857,
            "longitude": 91.8376566
        }
    },
    {
        "name": "Aminbazar Police Camp",
        "coordinates": {
            "latitude": 23.7855688,
            "longitude": 90.3302145
        }
    },
    {
        "name": "Rangirkhari Police Outpost",
        "coordinates": {
            "latitude": 24.8056687,
            "longitude": 92.800414
        }
    },
    {
        "name": "Ghungoor Police Outpost",
        "coordinates": {
            "latitude": 24.7790861,
            "longitude": 92.7939251
        }
    },
    {
        "name": "Malugram Police Outpost",
        "coordinates": {
            "latitude": 24.8397832,
            "longitude": 92.8074628
        }
    },
    {
        "name": "Ward Police Office",
        "coordinates": {
            "latitude": 28.0595216,
            "longitude": 81.6318182
        }
    },
    {
        "name": "Unknown Police Station",
        "coordinates": {
            "latitude": 24.6964295,
            "longitude": 84.9921724
        }
    },
    {
        "name": "Unknown Police Station",
        "coordinates": {
            "latitude": 24.6959373,
            "longitude": 84.9921253
        }
    },
    {
        "name": "Police Chowki",
        "coordinates": {
            "latitude": 26.8482599,
            "longitude": 80.9243626
        }
    },
    {
        "name": "Unknown Police Station",
        "coordinates": {
            "latitude": 24.6955269,
            "longitude": 84.9803383
        }
    },
    {
        "name": "Monohardi Police Station",
        "coordinates": {
            "latitude": 24.1415653,
            "longitude": 90.6968468
        }
    },
    {
        "name": "City Gate Police Box, Dhaka - Chittagong Highway, Chattogram",
        "coordinates": {
            "latitude": 22.3733171,
            "longitude": 91.7740782
        }
    },
    {
        "name": "Parnasree Police Station",
        "coordinates": {
            "latitude": 22.5088819,
            "longitude": 88.3068201
        }
    },
    {
        "name": "Police Station Kanhan",
        "coordinates": {
            "latitude": 21.2255075,
            "longitude": 79.2338855
        }
    },
    {
        "name": "Unknown Police Station",
        "coordinates": {
            "latitude": 24.6963724,
            "longitude": 84.9922129
        }
    },
    {
        "name": "District police station",
        "coordinates": {
            "latitude": 28.9542239,
            "longitude": 82.8945168
        }
    },
    {
        "name": "Gopalpur Police Station",
        "coordinates": {
            "latitude": 24.562116,
            "longitude": 89.9285976
        }
    },
    {
        "name": "Baghchung Police station",
        "coordinates": {
            "latitude": 26.7157686,
            "longitude": 94.2127683
        }
    },
    {
        "name": "Area Police Offive",
        "coordinates": {
            "latitude": 28.1946605,
            "longitude": 81.689007
        }
    },
    {
        "name": "\u101b\u1032\u1005\u1001\u1014\u103a\u1038 \u101e\u1036\u1010\u103d\u1032;\u1019\u103c\u1014\u103a\u1019\u102c\u1014\u102d\u102f\u1004\u103a\u1004\u1036 \u101b\u1032\u1010\u1015\u103a\u1016\u103d\u1032\u1037 (\u101e\u1036\u1010\u103d\u1032)",
        "coordinates": {
            "latitude": 18.4695053,
            "longitude": 94.3668913
        }
    },
    {
        "name": "Unknown Police Station",
        "coordinates": {
            "latitude": 21.3725062,
            "longitude": 93.9773774
        }
    },
    {
        "name": "Unknown Police Station",
        "coordinates": {
            "latitude": 21.6065848,
            "longitude": 93.4398542
        }
    },
    {
        "name": "Hatkhola Chowk",
        "coordinates": {
            "latitude": 26.460176,
            "longitude": 87.2926011
        }
    },
    {
        "name": "Mangaltar, Chhap",
        "coordinates": {
            "latitude": 27.4754016,
            "longitude": 85.7438403
        }
    },
    {
        "name": "Matigara Police Station",
        "coordinates": {
            "latitude": 26.7203667,
            "longitude": 88.3834567
        }
    },
    {
        "name": "Armed Police Force, Sanjen Hydropower Security Base, Chilime Rasuwa",
        "coordinates": {
            "latitude": 28.182031,
            "longitude": 85.3054808
        }
    },
    {
        "name": "Unknown Police Station",
        "coordinates": {
            "latitude": 27.0418153,
            "longitude": 88.2651114
        }
    },
    {
        "name": "Unknown Police Station",
        "coordinates": {
            "latitude": 26.7322603,
            "longitude": 88.4076388
        }
    },
    {
        "name": "Unknown Police Station",
        "coordinates": {
            "latitude": 27.044274,
            "longitude": 88.2665932
        }
    },
    {
        "name": "Unknown Police Station",
        "coordinates": {
            "latitude": 27.0457352,
            "longitude": 88.2670482
        }
    },
    {
        "name": "Unknown Police Station",
        "coordinates": {
            "latitude": 27.0560918,
            "longitude": 88.2548435
        }
    },
    {
        "name": "Unknown Police Station",
        "coordinates": {
            "latitude": 27.0356838,
            "longitude": 88.2623305
        }
    },
    {
        "name": "para thana",
        "coordinates": {
            "latitude": 26.8240226,
            "longitude": 80.8740677
        }
    },
    {
        "name": "Ilaka Prahari Karyalaya, Sisuwa",
        "coordinates": {
            "latitude": 28.1725723,
            "longitude": 84.0535176
        }
    },
    {
        "name": "Temporary Police Station, Nadipur",
        "coordinates": {
            "latitude": 28.2334287,
            "longitude": 83.9905489
        }
    },
    {
        "name": "Unknown Police Station",
        "coordinates": {
            "latitude": 27.3569512,
            "longitude": 96.013021
        }
    },
    {
        "name": "bungkot police",
        "coordinates": {
            "latitude": 27.9635593,
            "longitude": 84.6757517
        }
    },
    {
        "name": "\u1021\u1011\u1031\u102c\u1004\u103a\u101b\u1032\u1005\u1001\u1014\u103a\u1038",
        "coordinates": {
            "latitude": 17.3463238,
            "longitude": 95.3329849
        }
    },
    {
        "name": "Unknown Police Station",
        "coordinates": {
            "latitude": 27.6927865,
            "longitude": 85.4151681
        }
    },
    {
        "name": "Police station,thimi",
        "coordinates": {
            "latitude": 27.6821105,
            "longitude": 85.3914749
        }
    },
    {
        "name": "Thapathali",
        "coordinates": {
            "latitude": 27.6890227,
            "longitude": 85.3204209
        }
    },
    {
        "name": "Lazimpat Police Office",
        "coordinates": {
            "latitude": 27.7226711,
            "longitude": 85.3211019
        }
    },
    {
        "name": "Drivertol police",
        "coordinates": {
            "latitude": 27.6497435,
            "longitude": 83.4672907
        }
    },
    {
        "name": "Community Police Station",
        "coordinates": {
            "latitude": 27.4526772,
            "longitude": 89.6541804
        }
    },
    {
        "name": "Bada Bazar  Chauki",
        "coordinates": {
            "latitude": 25.2449262,
            "longitude": 79.131674
        }
    },
    {
        "name": "Fattepur Police station",
        "coordinates": {
            "latitude": 27.1194952,
            "longitude": 85.0176385
        }
    },
    {
        "name": "Police Station",
        "coordinates": {
            "latitude": 20.0716577,
            "longitude": 94.4695682
        }
    },
    {
        "name": "Chanaute Police ",
        "coordinates": {
            "latitude": 28.1111718,
            "longitude": 84.6659922
        }
    },
    {
        "name": "District Police Office, Rukum",
        "coordinates": {
            "latitude": 28.6292361,
            "longitude": 82.4527883
        }
    },
    {
        "name": "Bartung",
        "coordinates": {
            "latitude": 27.8563783,
            "longitude": 83.5533142
        }
    },
    {
        "name": "Shanischare Police Station",
        "coordinates": {
            "latitude": 26.6853034,
            "longitude": 87.9928089
        }
    },
    {
        "name": "No.3 Police Station",
        "coordinates": {
            "latitude": 20.9094315,
            "longitude": 95.888176
        }
    },
    {
        "name": "Kume precinct",
        "coordinates": {
            "latitude": 21.3563133,
            "longitude": 96.1567017
        }
    },
    {
        "name": "No.5 Police Station",
        "coordinates": {
            "latitude": 21.9872725,
            "longitude": 96.0772494
        }
    },
    {
        "name": "Police Station",
        "coordinates": {
            "latitude": 20.6115398,
            "longitude": 79.8650649
        }
    },
    {
        "name": "Munshiganj Sadar Police Station",
        "coordinates": {
            "latitude": 23.5533074,
            "longitude": 90.5342845
        }
    },
    {
        "name": "Mahanagariya Prahari Bit Ward no 4",
        "coordinates": {
            "latitude": 27.7325694,
            "longitude": 85.3387236
        }
    },
    {
        "name": "Mahakali ward police chauki",
        "coordinates": {
            "latitude": 19.939777,
            "longitude": 79.3081092
        }
    },
    {
        "name": "Ramnagar police station",
        "coordinates": {
            "latitude": 19.9656135,
            "longitude": 79.2999234
        }
    },
    {
        "name": "CITY POLICE STATION",
        "coordinates": {
            "latitude": 19.9462838,
            "longitude": 79.2963481
        }
    },
    {
        "name": "Armed police force siraha",
        "coordinates": {
            "latitude": 26.6330561,
            "longitude": 86.2495244
        }
    },
    {
        "name": "Police check point ",
        "coordinates": {
            "latitude": 30.1275554,
            "longitude": 83.3383031
        }
    },
    {
        "name": "Military check point ",
        "coordinates": {
            "latitude": 29.3239126,
            "longitude": 85.2410157
        }
    },
    {
        "name": "Police check point ",
        "coordinates": {
            "latitude": 29.4182317,
            "longitude": 85.8007864
        }
    },
    {
        "name": "Police check point ",
        "coordinates": {
            "latitude": 29.1078908,
            "longitude": 87.5873503
        }
    },
    {
        "name": "Police check point ",
        "coordinates": {
            "latitude": 29.2127079,
            "longitude": 88.3572517
        }
    },
    {
        "name": "beniapukur police station",
        "coordinates": {
            "latitude": 22.547021,
            "longitude": 88.3680459
        }
    },
    {
        "name": "Armed police Force Gulma Gorkha",
        "coordinates": {
            "latitude": 27.9848624,
            "longitude": 84.6398623
        }
    },
    {
        "name": "center box",
        "coordinates": {
            "latitude": 27.4733834,
            "longitude": 89.6388658
        }
    },
    {
        "name": "Bhamo Police Station",
        "coordinates": {
            "latitude": 24.25695,
            "longitude": 97.2276913
        }
    },
    {
        "name": "Unknown Police Station",
        "coordinates": {
            "latitude": 26.853327,
            "longitude": 85.5590761
        }
    },
    {
        "name": "Unknown Police Station",
        "coordinates": {
            "latitude": 27.6526752,
            "longitude": 85.3049255
        }
    },
    {
        "name": "Unknown Police Station",
        "coordinates": {
            "latitude": 27.9147352,
            "longitude": 85.1423985
        }
    },
    {
        "name": "Unknown Police Station",
        "coordinates": {
            "latitude": 28.34291,
            "longitude": 84.406302
        }
    },
    {
        "name": "Police Box",
        "coordinates": {
            "latitude": 23.732271,
            "longitude": 90.38526
        }
    },
    {
        "name": "Pyinmana Police Station",
        "coordinates": {
            "latitude": 19.7353488,
            "longitude": 96.2026519
        }
    },
    {
        "name": "lalauli police station",
        "coordinates": {
            "latitude": 25.8099463,
            "longitude": 80.5406866
        }
    },
    {
        "name": "Shastri Nagar Police Chowki",
        "coordinates": {
            "latitude": 19.9662229,
            "longitude": 79.3118763
        }
    },
    {
        "name": "tindwari police station",
        "coordinates": {
            "latitude": 25.6168636,
            "longitude": 80.5247938
        }
    },
    {
        "name": "yamuna bridge",
        "coordinates": {
            "latitude": 25.7150218,
            "longitude": 80.6068569
        }
    },
    {
        "name": "Royal Bhutan Police",
        "coordinates": {
            "latitude": 26.7945994,
            "longitude": 91.5037985
        }
    },
    {
        "name": "ACA Entry Permit Checkpoint",
        "coordinates": {
            "latitude": 28.6659871,
            "longitude": 84.0230806
        }
    },
    {
        "name": "Kedar Nagar Police station",
        "coordinates": {
            "latitude": 26.5399454,
            "longitude": 82.546576
        }
    },
    {
        "name": "Unknown Police Station",
        "coordinates": {
            "latitude": 20.1280516,
            "longitude": 96.202297
        }
    },
    {
        "name": "Sorojgonj Police Station",
        "coordinates": {
            "latitude": 23.589347,
            "longitude": 88.9364996
        }
    },
    {
        "name": "Pyin Oo Lwin Police Station",
        "coordinates": {
            "latitude": 22.0331044,
            "longitude": 96.4677187
        }
    },
    {
        "name": "\u1001\u103b\u1031\u102c\u1000\u103a\u1019\u103c\u102d\u102f\u1037\u1014\u101a\u103a\u101b\u1032\u1010\u1015\u103a\u1016\u103d\u1032\u1037",
        "coordinates": {
            "latitude": 20.8940473,
            "longitude": 94.8207795
        }
    },
    {
        "name": "Gaindakot  Police Checkpost",
        "coordinates": {
            "latitude": 27.7011535,
            "longitude": 84.4179539
        }
    },
    {
        "name": "Unknown Police Station",
        "coordinates": {
            "latitude": 27.7277061,
            "longitude": 85.4611297
        }
    },
    {
        "name": "\u09b0\u09c7\u09b2\u0993\u09df\u09c7 \u09aa\u09c1\u09b2\u09bf\u09b6 \u09b9\u09c7\u09a1\u0995\u09cb\u09df\u09be\u09b0\u09cd\u099f\u09be\u09b0",
        "coordinates": {
            "latitude": 23.7309393,
            "longitude": 90.4258081
        }
    },
    {
        "name": "Unknown Police Station",
        "coordinates": {
            "latitude": 28.6914301,
            "longitude": 83.6178074
        }
    },
    {
        "name": "Unknown Police Station",
        "coordinates": {
            "latitude": 19.7387207,
            "longitude": 96.0896444
        }
    },
    {
        "name": "Unknown Police Station",
        "coordinates": {
            "latitude": 27.6937083,
            "longitude": 85.3137333
        }
    },
    {
        "name": "Unknown Police Station",
        "coordinates": {
            "latitude": 27.5867756,
            "longitude": 85.5134951
        }
    },
    {
        "name": "Unknown Police Station",
        "coordinates": {
            "latitude": 27.7025278,
            "longitude": 85.4706391
        }
    },
    {
        "name": "tarbahar police station",
        "coordinates": {
            "latitude": 22.0703111,
            "longitude": 82.1604238
        }
    },
    {
        "name": "MAHILA THANA",
        "coordinates": {
            "latitude": 22.0809708,
            "longitude": 82.1496504
        }
    },
    {
        "name": "Samudayak Sewa Kendra, Prithivi Chowk",
        "coordinates": {
            "latitude": 28.209592,
            "longitude": 83.9877959
        }
    },
    {
        "name": "Unknown Police Station",
        "coordinates": {
            "latitude": 22.9065809,
            "longitude": 96.4233816
        }
    },
    {
        "name": "Unknown Police Station",
        "coordinates": {
            "latitude": 20.8117671,
            "longitude": 95.770949
        }
    },
    {
        "name": "Seleghat Police Station",
        "coordinates": {
            "latitude": 27.3404919,
            "longitude": 85.9850431
        }
    },
    {
        "name": "doramba police station",
        "coordinates": {
            "latitude": 27.5141111,
            "longitude": 85.9332179
        }
    },
    {
        "name": "District Police Office Tanahun",
        "coordinates": {
            "latitude": 27.9764972,
            "longitude": 84.2659534
        }
    },
    {
        "name": "Unknown Police Station",
        "coordinates": {
            "latitude": 27.669628,
            "longitude": 84.190994
        }
    },
    {
        "name": "Traffick Police Office",
        "coordinates": {
            "latitude": 27.6698691,
            "longitude": 85.4104997
        }
    },
    {
        "name": "Community Police Center",
        "coordinates": {
            "latitude": 27.4596671,
            "longitude": 89.6405679
        }
    },
    {
        "name": "Ajni Police Station",
        "coordinates": {
            "latitude": 21.1230263,
            "longitude": 79.0974758
        }
    },
    {
        "name": "Unknown Police Station",
        "coordinates": {
            "latitude": 27.6554616,
            "longitude": 84.1126321
        }
    },
    {
        "name": "Immigration Check Post, Sonauli",
        "coordinates": {
            "latitude": 27.4719594,
            "longitude": 83.4656038
        }
    },
    {
        "name": "DDU Nagar Police station",
        "coordinates": {
            "latitude": 21.2515488,
            "longitude": 81.5954033
        }
    },
    {
        "name": "Annavarm Police Station",
        "coordinates": {
            "latitude": 17.2848462,
            "longitude": 82.4057539
        }
    },
    {
        "name": "Anakapalli Police Station",
        "coordinates": {
            "latitude": 17.6858653,
            "longitude": 82.9884187
        }
    },
    {
        "name": "Gopalapatnam Police Station",
        "coordinates": {
            "latitude": 17.7442772,
            "longitude": 83.2257172
        }
    },
    {
        "name": "Parawada Police Station",
        "coordinates": {
            "latitude": 17.6296866,
            "longitude": 83.0909269
        }
    },
    {
        "name": "Chodavaram Police Station",
        "coordinates": {
            "latitude": 17.8257435,
            "longitude": 82.9386716
        }
    },
    {
        "name": "Butchiyyapeta Police Station",
        "coordinates": {
            "latitude": 17.790529,
            "longitude": 82.8749406
        }
    },
    {
        "name": "S Kota Police Station",
        "coordinates": {
            "latitude": 18.1141818,
            "longitude": 83.138363
        }
    },
    {
        "name": "Golugonda Police Station",
        "coordinates": {
            "latitude": 17.679553,
            "longitude": 82.4681388
        }
    },
    {
        "name": "Bommuru Police Station",
        "coordinates": {
            "latitude": 17.0137329,
            "longitude": 81.8087082
        }
    },
    {
        "name": "Kasimkota Police Station",
        "coordinates": {
            "latitude": 17.6695914,
            "longitude": 82.9664591
        }
    },
    {
        "name": "Urla Police station",
        "coordinates": {
            "latitude": 21.3083942,
            "longitude": 81.6192122
        }
    },
    {
        "name": "Amanaka Police station",
        "coordinates": {
            "latitude": 21.2507507,
            "longitude": 81.5876752
        }
    },
    {
        "name": "Tikrapara Police station",
        "coordinates": {
            "latitude": 21.2206286,
            "longitude": 81.6415295
        }
    },
    {
        "name": "Koyyuru Police Station",
        "coordinates": {
            "latitude": 17.6485055,
            "longitude": 82.2213589
        }
    },
    {
        "name": "NKP Police Station",
        "coordinates": {
            "latitude": 17.4089028,
            "longitude": 82.7161181
        }
    },
    {
        "name": "Taranagar Police fari",
        "coordinates": {
            "latitude": 23.7314637,
            "longitude": 90.3232058
        }
    },
    {
        "name": "Unknown Police Station",
        "coordinates": {
            "latitude": 23.7989772,
            "longitude": 90.2521318
        }
    },
    {
        "name": "\u1021\u103b\u1004\u102d\u1019\u1039\u1038\u1005\u102c\u1038\u101d\u1014\u1039\u1011\u1019\u1039\u1038\u1031\u1006\u1038\u101b\u1036\u102f",
        "coordinates": {
            "latitude": 19.9021545,
            "longitude": 96.2018521
        }
    },
    {
        "name": "Police Post",
        "coordinates": {
            "latitude": 27.6813946,
            "longitude": 85.3033298
        }
    },
    {
        "name": "Unknown Police Station",
        "coordinates": {
            "latitude": 27.5141134,
            "longitude": 85.9332379
        }
    },
    {
        "name": "Unknown Police Station",
        "coordinates": {
            "latitude": 22.4620524,
            "longitude": 90.3837514
        }
    },
    {
        "name": "Unknown Police Station",
        "coordinates": {
            "latitude": 22.4620478,
            "longitude": 90.3841033
        }
    },
    {
        "name": "Unknown Police Station",
        "coordinates": {
            "latitude": 22.4626518,
            "longitude": 90.3824034
        }
    },
    {
        "name": "Sulav suchaloy",
        "coordinates": {
            "latitude": 23.7850489,
            "longitude": 91.259853
        }
    },
    {
        "name": "Police Station",
        "coordinates": {
            "latitude": 28.2659235,
            "longitude": 95.6161074
        }
    },
    {
        "name": "Unknown Police Station",
        "coordinates": {
            "latitude": 27.9955368,
            "longitude": 84.6245761
        }
    },
    {
        "name": "District Police Gorkha",
        "coordinates": {
            "latitude": 27.9952959,
            "longitude": 84.6245493
        }
    },
    {
        "name": "\u0986\u09a6\u09be\u09ac\u09b0 \u09a5\u09be\u09a8\u09be",
        "coordinates": {
            "latitude": 23.7711654,
            "longitude": 90.3593643
        }
    },
    {
        "name": "Unknown Police Station",
        "coordinates": {
            "latitude": 27.6266845,
            "longitude": 84.5066224
        }
    },
    {
        "name": "Police Post",
        "coordinates": {
            "latitude": 26.6844564,
            "longitude": 87.0958838
        }
    },
    {
        "name": "Unknown Police Station",
        "coordinates": {
            "latitude": 27.6916373,
            "longitude": 83.469735
        }
    },
    {
        "name": "Unknown Police Station",
        "coordinates": {
            "latitude": 27.5974605,
            "longitude": 83.6363363
        }
    },
    {
        "name": "Unknown Police Station",
        "coordinates": {
            "latitude": 27.0360412,
            "longitude": 84.8931994
        }
    },
    {
        "name": "\u1081\u1030\u1004\u103a\u1038\u1010\u1019\u103a\u1087\u107c\u1030\u1010\u103a\u1087 \u1019\u1062\u1086 (1)",
        "coordinates": {
            "latitude": 22.9376722,
            "longitude": 97.7457226
        }
    },
    {
        "name": "Unknown Police Station",
        "coordinates": {
            "latitude": 27.6629615,
            "longitude": 84.3862607
        }
    },
    {
        "name": "Hemja Police Station",
        "coordinates": {
            "latitude": 28.2780901,
            "longitude": 83.9364776
        }
    },
    {
        "name": "Unknown Police Station",
        "coordinates": {
            "latitude": 27.6408847,
            "longitude": 85.4799727
        }
    },
    {
        "name": "Unknown Police Station",
        "coordinates": {
            "latitude": 18.0745186,
            "longitude": 96.4665993
        }
    },
    {
        "name": "Unknown Police Station",
        "coordinates": {
            "latitude": 18.1406801,
            "longitude": 96.4597356
        }
    },
    {
        "name": "Unknown Police Station",
        "coordinates": {
            "latitude": 18.2195607,
            "longitude": 96.4424193
        }
    },
    {
        "name": "Unknown Police Station",
        "coordinates": {
            "latitude": 18.2839064,
            "longitude": 96.4507452
        }
    },
    {
        "name": "Unknown Police Station",
        "coordinates": {
            "latitude": 18.3234027,
            "longitude": 96.4466065
        }
    },
    {
        "name": "Unknown Police Station",
        "coordinates": {
            "latitude": 18.3833721,
            "longitude": 96.4239339
        }
    },
    {
        "name": "Unknown Police Station",
        "coordinates": {
            "latitude": 18.4469696,
            "longitude": 96.3966201
        }
    },
    {
        "name": "Unknown Police Station",
        "coordinates": {
            "latitude": 18.4897694,
            "longitude": 96.3884502
        }
    },
    {
        "name": "Unknown Police Station",
        "coordinates": {
            "latitude": 27.5073262,
            "longitude": 83.4415813
        }
    },
    {
        "name": "Unknown Police Station",
        "coordinates": {
            "latitude": 27.5077003,
            "longitude": 83.4512688
        }
    },
    {
        "name": "Unknown Police Station",
        "coordinates": {
            "latitude": 18.817256,
            "longitude": 95.2522426
        }
    },
    {
        "name": "Unknown Police Station",
        "coordinates": {
            "latitude": 19.0679058,
            "longitude": 95.6282437
        }
    },
    {
        "name": "Unknown Police Station",
        "coordinates": {
            "latitude": 23.6838173,
            "longitude": 90.7798074
        }
    },
    {
        "name": "\u0987\u0995\u09ac\u09be\u09b2 \u09b0\u09cb\u09a1 \u09aa\u09c1\u09b2\u09bf\u09b6 \u0995\u09cd\u09af\u09be\u09ae\u09cd\u09aa",
        "coordinates": {
            "latitude": 23.7634344,
            "longitude": 90.3689703
        }
    },
    {
        "name": "Koraput police station",
        "coordinates": {
            "latitude": 18.8131624,
            "longitude": 82.7115903
        }
    },
    {
        "name": "Unknown Police Station",
        "coordinates": {
            "latitude": 22.3671575,
            "longitude": 95.7910779
        }
    },
    {
        "name": "\u1019\u1004\u103a\u1038\u1010\u1005\u102f\u101b\u1032\u1005\u1001\u1014\u103a\u1038",
        "coordinates": {
            "latitude": 17.133513,
            "longitude": 95.4685672
        }
    },
    {
        "name": "Unknown Police Station",
        "coordinates": {
            "latitude": 27.0086469,
            "longitude": 85.5046247
        }
    },
    {
        "name": "District Police Station",
        "coordinates": {
            "latitude": 22.1735814,
            "longitude": 94.1303857
        }
    },
    {
        "name": "Unknown Police Station",
        "coordinates": {
            "latitude": 27.6897979,
            "longitude": 84.5631811
        }
    },
    {
        "name": "Unknown Police Station",
        "coordinates": {
            "latitude": 21.9856079,
            "longitude": 96.0602871
        }
    },
    {
        "name": "Traffic Police Station",
        "coordinates": {
            "latitude": 20.4483941,
            "longitude": 85.8973415
        }
    },
    {
        "name": "Madhupatna Police Station",
        "coordinates": {
            "latitude": 20.4486052,
            "longitude": 85.8973291
        }
    },
    {
        "name": "Lalbhag Police Station",
        "coordinates": {
            "latitude": 20.466397,
            "longitude": 85.8586259
        }
    },
    {
        "name": "Unknown Police Station",
        "coordinates": {
            "latitude": 27.6317549,
            "longitude": 85.5152371
        }
    },
    {
        "name": "Athagarh Police Station",
        "coordinates": {
            "latitude": 20.5216956,
            "longitude": 85.6295958
        }
    },
    {
        "name": "Unknown Police Station",
        "coordinates": {
            "latitude": 27.6735995,
            "longitude": 85.3797019
        }
    },
    {
        "name": "Unknown Police Station",
        "coordinates": {
            "latitude": 26.8278173,
            "longitude": 87.1551986
        }
    },
    {
        "name": "Unknown Police Station",
        "coordinates": {
            "latitude": 22.5294272,
            "longitude": 97.0333934
        }
    },
    {
        "name": "Unknown Police Station",
        "coordinates": {
            "latitude": 25.3121998,
            "longitude": 79.0033355
        }
    },
    {
        "name": "Unknown Police Station",
        "coordinates": {
            "latitude": 25.2603047,
            "longitude": 79.137982
        }
    },
    {
        "name": "Ma Zin Police Station",
        "coordinates": {
            "latitude": 18.4548477,
            "longitude": 94.3009465
        }
    },
    {
        "name": "District Police Office, Chitwan",
        "coordinates": {
            "latitude": 27.6787341,
            "longitude": 84.4345441
        }
    },
    {
        "name": "Unknown Police Station",
        "coordinates": {
            "latitude": 25.2446262,
            "longitude": 79.1396328
        }
    },
    {
        "name": "Unknown Police Station",
        "coordinates": {
            "latitude": 26.6624132,
            "longitude": 87.2772477
        }
    },
    {
        "name": "Unknown Police Station",
        "coordinates": {
            "latitude": 27.7156242,
            "longitude": 85.3255385
        }
    },
    {
        "name": "Unknown Police Station",
        "coordinates": {
            "latitude": 28.3814121,
            "longitude": 84.4028481
        }
    },
    {
        "name": "Unknown Police Station",
        "coordinates": {
            "latitude": 27.605247,
            "longitude": 84.5692137
        }
    },
    {
        "name": "Unknown Police Station",
        "coordinates": {
            "latitude": 26.8611321,
            "longitude": 89.3812509
        }
    },
    {
        "name": "Unknown Police Station",
        "coordinates": {
            "latitude": 28.5507092,
            "longitude": 84.2434905
        }
    },
    {
        "name": "Unknown Police Station",
        "coordinates": {
            "latitude": 27.0066962,
            "longitude": 84.8732676
        }
    },
    {
        "name": "Moulvibazar Police Station",
        "coordinates": {
            "latitude": 24.4794993,
            "longitude": 91.7657941
        }
    },
    {
        "name": "Unknown Police Station",
        "coordinates": {
            "latitude": 27.5567043,
            "longitude": 83.7930675
        }
    },
    {
        "name": "mauranipur Police Station",
        "coordinates": {
            "latitude": 25.2468673,
            "longitude": 79.1368668
        }
    },
    {
        "name": "Burha Police Outpost",
        "coordinates": {
            "latitude": 26.4516961,
            "longitude": 91.7878252
        }
    },
    {
        "name": "Passenger & public help desk",
        "coordinates": {
            "latitude": 27.9963876,
            "longitude": 85.2037129
        }
    },
    {
        "name": "Metropolitian Police Circle, Sukedhara",
        "coordinates": {
            "latitude": 27.7282186,
            "longitude": 85.3459238
        }
    },
    {
        "name": "Police picket post",
        "coordinates": {
            "latitude": 27.3483144,
            "longitude": 88.1917533
        }
    },
    {
        "name": "Unknown Police Station",
        "coordinates": {
            "latitude": 26.5540336,
            "longitude": 87.9612601
        }
    },
    {
        "name": "Unknown Police Station",
        "coordinates": {
            "latitude": 22.4619908,
            "longitude": 90.3861517
        }
    },
    {
        "name": "Sadarghat Police Station",
        "coordinates": {
            "latitude": 22.32738,
            "longitude": 91.8305169
        }
    },
    {
        "name": "Police Fari",
        "coordinates": {
            "latitude": 22.3271397,
            "longitude": 91.8319881
        }
    },
    {
        "name": "Unknown Police Station",
        "coordinates": {
            "latitude": 22.4621447,
            "longitude": 90.3862187
        }
    },
    {
        "name": "Unknown Police Station",
        "coordinates": {
            "latitude": 29.0207096,
            "longitude": 81.4241685
        }
    },
    {
        "name": "Lekhnath Community Police Station",
        "coordinates": {
            "latitude": 28.1697869,
            "longitude": 84.0553013
        }
    },
    {
        "name": "Unknown Police Station",
        "coordinates": {
            "latitude": 28.124954,
            "longitude": 81.820344
        }
    },
    {
        "name": "Mirzapur City Kotwali",
        "coordinates": {
            "latitude": 25.1495833,
            "longitude": 82.5681398
        }
    },
    {
        "name": "Unknown Police Station",
        "coordinates": {
            "latitude": 21.3352079,
            "longitude": 95.0858026
        }
    },
    {
        "name": "Buddhanilkantha Police Station",
        "coordinates": {
            "latitude": 27.7770541,
            "longitude": 85.3619483
        }
    },
    {
        "name": "Islampur Police Fari",
        "coordinates": {
            "latitude": 23.7099414,
            "longitude": 90.4075147
        }
    },
    {
        "name": "Sarail Police Station",
        "coordinates": {
            "latitude": 24.069302,
            "longitude": 91.1123264
        }
    },
    {
        "name": "Temporary Police Station, Srijana Chowk",
        "coordinates": {
            "latitude": 28.2109696,
            "longitude": 83.9811525
        }
    },
    {
        "name": "Temporary Police Station, Bindawasini",
        "coordinates": {
            "latitude": 28.2373819,
            "longitude": 83.9852464
        }
    },
    {
        "name": "Police Station, Sarankot",
        "coordinates": {
            "latitude": 28.2442038,
            "longitude": 83.9562229
        }
    },
    {
        "name": "Samudayak Sewa Kendra, Matepani",
        "coordinates": {
            "latitude": 28.2154829,
            "longitude": 84.0039371
        }
    },
    {
        "name": "Temporary Police Station, Baal Sudhar Kendra Saarankot",
        "coordinates": {
            "latitude": 28.2397828,
            "longitude": 83.9649231
        }
    },
    {
        "name": "Samudayak Sewa Kendra, Baaidam",
        "coordinates": {
            "latitude": 28.2145448,
            "longitude": 83.9565514
        }
    },
    {
        "name": "Tourist Police Information Center",
        "coordinates": {
            "latitude": 28.2082223,
            "longitude": 83.9573751
        }
    },
    {
        "name": "Tourist Police Information Center",
        "coordinates": {
            "latitude": 28.2013072,
            "longitude": 83.9681975
        }
    },
    {
        "name": "Rafiganj Police",
        "coordinates": {
            "latitude": 24.8158926,
            "longitude": 84.631449
        }
    },
    {
        "name": "Unknown Police Station",
        "coordinates": {
            "latitude": 27.1094252,
            "longitude": 89.5387028
        }
    },
    {
        "name": "Unknown Police Station",
        "coordinates": {
            "latitude": 24.872695,
            "longitude": 91.9261742
        }
    },
    {
        "name": "Unknown Police Station",
        "coordinates": {
            "latitude": 26.7180785,
            "longitude": 85.9299916
        }
    },
    {
        "name": "Kotwali City Tikamgarh",
        "coordinates": {
            "latitude": 24.745105,
            "longitude": 78.8327338
        }
    },
    {
        "name": "Police Parade ground",
        "coordinates": {
            "latitude": 24.7553466,
            "longitude": 78.8296945
        }
    },
    {
        "name": "Unknown Police Station",
        "coordinates": {
            "latitude": 26.8118267,
            "longitude": 86.8823365
        }
    },
    {
        "name": "Unknown Police Station",
        "coordinates": {
            "latitude": 27.204993,
            "longitude": 85.916732
        }
    },
    {
        "name": "Unknown Police Station",
        "coordinates": {
            "latitude": 26.7939541,
            "longitude": 80.9125252
        }
    },
    {
        "name": "Police Beat",
        "coordinates": {
            "latitude": 28.2075855,
            "longitude": 81.3430042
        }
    },
    {
        "name": "Unknown Police Station",
        "coordinates": {
            "latitude": 29.226601,
            "longitude": 81.9508893
        }
    },
    {
        "name": "Unknown Police Station",
        "coordinates": {
            "latitude": 29.1450124,
            "longitude": 81.7860331
        }
    },
    {
        "name": "Unknown Police Station",
        "coordinates": {
            "latitude": 29.1570813,
            "longitude": 81.8239445
        }
    },
    {
        "name": "Harbang Police Bit",
        "coordinates": {
            "latitude": 21.845437,
            "longitude": 92.0579199
        }
    },
    {
        "name": "Unknown Police Station",
        "coordinates": {
            "latitude": 28.0798182,
            "longitude": 81.6409767
        }
    },
    {
        "name": "Unknown Police Station",
        "coordinates": {
            "latitude": 28.5980427,
            "longitude": 83.6421765
        }
    },
    {
        "name": "Unknown Police Station",
        "coordinates": {
            "latitude": 24.8526589,
            "longitude": 79.9231981
        }
    },
    {
        "name": "Chiringa Police Out Post",
        "coordinates": {
            "latitude": 21.8056801,
            "longitude": 92.0777035
        }
    },
    {
        "name": "Bidupur Thana",
        "coordinates": {
            "latitude": 25.6432534,
            "longitude": 85.3333945
        }
    },
    {
        "name": "Unknown Police Station",
        "coordinates": {
            "latitude": 20.7855848,
            "longitude": 96.6512929
        }
    },
    {
        "name": "Unknown Police Station",
        "coordinates": {
            "latitude": 20.9363509,
            "longitude": 96.546237
        }
    },
    {
        "name": "Unknown Police Station",
        "coordinates": {
            "latitude": 21.4525059,
            "longitude": 96.3716337
        }
    },
    {
        "name": "Unknown Police Station",
        "coordinates": {
            "latitude": 22.6240143,
            "longitude": 97.3014656
        }
    },
    {
        "name": "Police Beat, Budhibazar",
        "coordinates": {
            "latitude": 28.1835855,
            "longitude": 84.0378727
        }
    },
    {
        "name": "Unknown Police Station",
        "coordinates": {
            "latitude": 26.7358439,
            "longitude": 88.0781345
        }
    },
    {
        "name": "Phidim Police Clock Tower",
        "coordinates": {
            "latitude": 27.1485975,
            "longitude": 87.7676522
        }
    },
    {
        "name": "Police Chauki, Nayapool",
        "coordinates": {
            "latitude": 28.2974558,
            "longitude": 83.7673165
        }
    },
    {
        "name": "Unknown Police Station",
        "coordinates": {
            "latitude": 27.0816797,
            "longitude": 84.7544566
        }
    },
    {
        "name": "\u1081\u1030\u1004\u103a\u1038\u1010\u1062\u1019\u103a\u1087\u101c\u1030\u1010\u103a\u1087",
        "coordinates": {
            "latitude": 23.8276225,
            "longitude": 97.5975735
        }
    },
    {
        "name": "Unknown Police Station",
        "coordinates": {
            "latitude": 27.7650316,
            "longitude": 85.2980412
        }
    },
    {
        "name": "Hiramandalam Police Station",
        "coordinates": {
            "latitude": 18.6739408,
            "longitude": 83.9497791
        }
    },
    {
        "name": "Unknown Police Station",
        "coordinates": {
            "latitude": 29.7699696,
            "longitude": 94.7408723
        }
    },
    {
        "name": "Prahari Chauki , Barakilo",
        "coordinates": {
            "latitude": 27.972775,
            "longitude": 84.5689721
        }
    },
    {
        "name": "Prahari Chauki, Majwa Deurali",
        "coordinates": {
            "latitude": 27.9116979,
            "longitude": 84.5429547
        }
    },
    {
        "name": "Ward Police Station, Gagangauda",
        "coordinates": {
            "latitude": 28.1333702,
            "longitude": 84.0834953
        }
    },
    {
        "name": "CRV(Metro) Police Station",
        "coordinates": {
            "latitude": 28.1655885,
            "longitude": 84.0698029
        }
    },
    {
        "name": "Unknown Police Station",
        "coordinates": {
            "latitude": 26.6059573,
            "longitude": 86.4161778
        }
    },
    {
        "name": "Police Station, Sundaridanda",
        "coordinates": {
            "latitude": 28.1656394,
            "longitude": 84.112588
        }
    },
    {
        "name": "Unknown Police Station",
        "coordinates": {
            "latitude": 29.3488086,
            "longitude": 90.1982337
        }
    },
    {
        "name": "Unknown Police Station",
        "coordinates": {
            "latitude": 29.3085851,
            "longitude": 88.9158056
        }
    },
    {
        "name": "\u09a6\u09cb\u09b9\u09be\u09b0 \u09a5\u09be\u09a8\u09be",
        "coordinates": {
            "latitude": 23.6148438,
            "longitude": 90.1192103
        }
    },
    {
        "name": "ACAP Check Post",
        "coordinates": {
            "latitude": 28.3307205,
            "longitude": 83.9644433
        }
    },
    {
        "name": "Community Police Center",
        "coordinates": {
            "latitude": 27.2795834,
            "longitude": 91.511283
        }
    },
    {
        "name": "Badda Police Station",
        "coordinates": {
            "latitude": 23.7714118,
            "longitude": 90.427356
        }
    },
    {
        "name": "Unknown Police Station",
        "coordinates": {
            "latitude": 23.8171574,
            "longitude": 90.3609185
        }
    },
    {
        "name": "Dillibazar Central Jail",
        "coordinates": {
            "latitude": 27.706321,
            "longitude": 85.3271617
        }
    },
    {
        "name": "Sreemangal Police Station",
        "coordinates": {
            "latitude": 24.3106668,
            "longitude": 91.7322448
        }
    },
    {
        "name": "Unknown Police Station",
        "coordinates": {
            "latitude": 27.8705346,
            "longitude": 85.2736871
        }
    },
    {
        "name": "Unknown Police Station",
        "coordinates": {
            "latitude": 26.660702,
            "longitude": 87.6845755
        }
    },
    {
        "name": "115 Mile polic station",
        "coordinates": {
            "latitude": 18.5069668,
            "longitude": 96.3892661
        }
    },
    {
        "name": "Police Lines Allahabad",
        "coordinates": {
            "latitude": 25.4626401,
            "longitude": 81.8432613
        }
    },
    {
        "name": "Unknown Police Station",
        "coordinates": {
            "latitude": 28.0935167,
            "longitude": 84.497826
        }
    },
    {
        "name": "Khanapara Police Station",
        "coordinates": {
            "latitude": 26.1166579,
            "longitude": 91.8314579
        }
    },
    {
        "name": "Dhaka Metropolitan Police",
        "coordinates": {
            "latitude": 23.7243304,
            "longitude": 90.4069994
        }
    },
    {
        "name": "hatigaon police station",
        "coordinates": {
            "latitude": 26.1266082,
            "longitude": 91.7868419
        }
    },
    {
        "name": "Samudayik Prahari Chowk",
        "coordinates": {
            "latitude": 27.7118179,
            "longitude": 85.3370065
        }
    },
    {
        "name": "Farmgate Police Box",
        "coordinates": {
            "latitude": 23.7592856,
            "longitude": 90.3895098
        }
    },
    {
        "name": "Prahari Bit",
        "coordinates": {
            "latitude": 27.697345,
            "longitude": 85.3113651
        }
    },
    {
        "name": "police post",
        "coordinates": {
            "latitude": 26.5292415,
            "longitude": 86.9222874
        }
    },
    {
        "name": "Nepal Police Academy",
        "coordinates": {
            "latitude": 27.733809,
            "longitude": 85.3297429
        }
    },